{
  "id": "chickeeduck.hk",
  "name": {
    "en": "Chickeeduck"
  },
  "webpages": [
    {
      "url": "https://chickeeduck.com"
    },
    {
      "url": "https://www.instagram.com/chickeeduck_hk/",
      "meta": {
        "name": "CHICKEEDUCK",
        "about": "Established in 1990"
      }
    },
    {
      "url": "https://www.facebook.com/chickeeduck.hk/",
      "meta": {
        "name": "Chickeeduck",
        "id": "106727622691806",
        "categories": [
          "Clothing (Brand)",
          "Baby Goods/Kids Goods",
          "Baby & Children's Clothing Store"
        ],
        "tel": "90277985"
      }
    }
  ],
  "posts": [
    {
      "url": "https://www.facebook.com/herbertchowsiulung/posts/106470494426799",
      "meta": {
        "sharedWith": "Public"
      }
    },
    {
      "url": "https://www.facebook.com/standnewshk/posts/3177557258996539"
    }
  ],
  "tags": [
    "clothing",
    "shop"
  ],
  "places": [
    {
      "address": {
        "en": "7/F, SOGO, 555 Hennessy Road, Causeway Bay"
      },
      "googleMapsPlaceId": "ChIJXeKPllYABDQRA8F44bKsKxk",
      "coordinates": {
        "lat": 22.2802999,
        "lng": 114.1844892
      },
      "area": {
        "zh": "灣仔區"
      }
    },
    {
      "address": {
        "en": "Shop OT G30, Level G, Ocean Terminal, Harbour City, Tsim Sha Tsui"
      },
      "googleMapsPlaceId": "ChIJSfKzq_IABDQRRzf4WaIClfw",
      "coordinates": {
        "lat": 22.2950196,
        "lng": 114.1667674
      },
      "area": {
        "zh": "油尖旺區"
      }
    },
    {
      "address": {
        "en": "Shop B242, B2, K11 Musea, Victoria Dockside, 18 Salisbury Road, Tsim Sha Tsui"
      },
      "googleMapsPlaceId": "ChIJJaeB3_MBBDQRMuGmb2yQxGE",
      "coordinates": {
        "lat": 22.294059,
        "lng": 114.1741227
      },
      "area": {
        "zh": "油尖旺區"
      }
    },
    {
      "address": {
        "en": "Shop L2-16, Festival Walk, Kowloon Tong"
      },
      "googleMapsPlaceId": "ChIJfx5PRjEHBDQRIDFANIp7T_0",
      "coordinates": {
        "lat": 22.3373517,
        "lng": 114.1745657
      },
      "area": {
        "zh": "深水埗區"
      }
    },
    {
      "address": {
        "en": "Shop 358, Level 3, MOKO, Mong Kok"
      },
      "googleMapsPlaceId": "ChIJPWhdPMkABDQRQfSpEWpG9TE",
      "coordinates": {
        "lat": 22.3230544,
        "lng": 114.1721669
      },
      "area": {
        "zh": "油尖旺區"
      }
    },
    {
      "address": {
        "en": "Shop 313, Level 3, Plaza Hollywood, Diamond Hill, Kowloon"
      },
      "googleMapsPlaceId": "ChIJsUTxGdsGBDQRuMrIipHUdtQ",
      "coordinates": {
        "lat": 22.340554,
        "lng": 114.2021768
      },
      "area": {
        "zh": "黃大仙區"
      }
    },
    {
      "address": {
        "en": "Units 7 & 8, level 9, MegaBox, Kowloon Bay"
      },
      "googleMapsPlaceId": "ChIJjfvl4jMBBDQRKL243gid__4",
      "coordinates": {
        "lat": 22.3195745,
        "lng": 114.2080387
      },
      "area": {
        "zh": "觀塘區"
      }
    },
    {
      "address": {
        "en": "Shop A229, 2/F, New Town Plaza Phase 3, Sha Tin"
      },
      "googleMapsPlaceId": "ChIJUy-mBq0HBDQRfF1HKv_D5fA",
      "coordinates": {
        "lat": 22.3811898,
        "lng": 114.1880248
      },
      "area": {
        "zh": "沙田區"
      }
    },
    {
      "address": {
        "en": "Shop 1053, L1 D-Park, Tsuen Wan"
      },
      "googleMapsPlaceId": "ChIJcw9HvfH4AzQR0n0-oR_IPzw",
      "coordinates": {
        "lat": 22.3764012,
        "lng": 114.111548
      },
      "area": {
        "zh": "荃灣區"
      }
    },
    {
      "address": {
        "en": "Shop 272, Level 2, East Point City, Tseung Kwan O"
      },
      "googleMapsPlaceId": "ChIJlV2SgYoDBDQRajZMSQzwvBE",
      "coordinates": {
        "lat": 22.316829,
        "lng": 114.2652905
      },
      "area": {
        "zh": "西貢區"
      }
    },
    {
      "address": {
        "en": "Shop 2191C, 2/F, Tuen Mun Town Plaza Phase1, Tuen Mun"
      },
      "googleMapsPlaceId": "ChIJE7Wpbz37AzQRbFsJZCVg39A",
      "coordinates": {
        "lat": 22.3929225,
        "lng": 113.9776685
      },
      "area": {
        "zh": "屯門區"
      }
    },
    {
      "address": {
        "en": "Shop 2030, YOHO Mall I, Yuen Long, New Territories"
      },
      "googleMapsPlaceId": "ChIJ54Bi2KfwAzQRvYUyR0018bA",
      "coordinates": {
        "lat": 22.4453777,
        "lng": 114.036469
      },
      "area": {
        "zh": "元朗區"
      }
    },
    {
      "address": {
        "en": "Shop 507, Phase 2, Citygate Outlets, Tung Chung"
      },
      "googleMapsPlaceId": "ChIJV4f3sbriAzQRwn4qPhHeuTQ",
      "coordinates": {
        "lat": 22.289331,
        "lng": 113.940961
      },
      "area": {
        "zh": "離島區"
      }
    }
  ]
}