{
  "id": "DreamGotcha",
  "name": {
    "en": "Dream Gotcha",
    "zh": "å¤¢ã®æŠ“ç‰©åº—"
  },
  "webpages": [
    {
      "meta": {
        "name": "Dream Gotcha å¤¢ã®æŠ“ç‰©åº—",
        "id": "560128694412758",
        "about": "Dream Gotcha å¤¢ã®æŠ“ç‰©åº—\n-ç¾å­šæ–°é‚¨å‰åˆ©å¾‘6-8è™Ÿå¹³å°85è™Ÿ6B1è™Ÿèˆ–\n-è‘µæ¶Œå»£å ´3æ¨“80è™Ÿèˆ–åŠ303Eè™Ÿèˆ–\n-ç´…ç£¡èˆ¹æ¾³è¡—99è™Ÿç´…ç£¡å•†å ´åœ°ä¸‹20Aèˆ–\n-è—ç”°åŒ¯æ™¯å»£å ´L5å±¤183-187Cèˆ–",
        "categories": [
          "Games/Toys",
          "Product/Service"
        ],
        "tel": "61239265"
      },
      "url": "https://www.facebook.com/DreamGotcha/"
    },
    {
      "url": "https://www.instagram.com/dream_gotcha/",
      "meta": {
        "name": "Dream Gotcha å¤¢ã®æŠ“ç‰©åº—",
        "about": "ğŸ»ç¾å­šæ–°é‚¨å‰åˆ©å¾‘6-8è™Ÿå¹³å°85è™Ÿ6B1è™Ÿèˆ–\nğŸ»è‘µæ¶Œå»£å ´3æ¨“80è™Ÿèˆ–\nğŸ»ç´…ç£¡èˆ¹æ¾³è¡—99è™Ÿç´…ç£¡å•†å ´åœ°ä¸‹20Aèˆ–\nğŸ» å°‡è»æ¾³ä¸­å¿ƒ129aèˆ–\nğŸ»å±¯é–€æ¹–ç¿ è·¯168-236è™Ÿæµ·è¶£åŠ1æ¨“77è™Ÿèˆ–(åŠ ç›Ÿåº—)\nğŸ» é•·æ²™ç£æ˜Œè¯è¡—æ±æ™¯å¤§å»ˆåœ°ä¸‹\nğŸ»å±¯é–€è‰¯æ™¯æ‘è‰¯æ™¯å»£å ´L404 ï¼ˆæ——è‰¦åº—ï¼‰\nğŸ» ç²‰å¶ºèŠ±éƒ½å»£å ´99è™Ÿèˆ–"
      }
    }
  ],
  "posts": [
    {
      "url": "https://www.facebook.com/DreamGotcha/posts/761561460936146"
    },
    {
      "url": "https://www.facebook.com/DreamGotcha/posts/761543934271232"
    }
  ],
  "tags": [
    "toy",
    "shop"
  ],
  "places": [
    {
      "address": {
        "zh": "ç¾å­šæ–°é‚¨å‰åˆ©å¾‘6-8è™Ÿå¹³å°85è™Ÿ6B1è™Ÿèˆ–"
      },
      "googleMapsPlaceId": "ChIJUQx0r3z5AzQRBm1OSIqNUEM",
      "coordinates": {
        "lat": 22.3361346,
        "lng": 114.1398015
      }
    },
    {
      "address": {
        "zh": "è‘µæ¶Œå»£å ´3æ¨“80è™Ÿèˆ–"
      },
      "googleMapsPlaceId": "ChIJfWvY4nr5AzQRFmin7pShk-M",
      "coordinates": {
        "lat": 22.3580639,
        "lng": 114.1274692
      }
    },
    {
      "address": {
        "zh": "ç´…ç£¡èˆ¹æ¾³è¡—99è™Ÿç´…ç£¡å•†å ´åœ°ä¸‹20Aèˆ–"
      },
      "googleMapsPlaceId": "ChIJdU1s3IABBDQRHuzQmvw8ROo",
      "coordinates": {
        "lat": 22.305918,
        "lng": 114.1872707
      }
    },
    {
      "address": {
        "zh": "å°‡è»æ¾³ä¸­å¿ƒ129aèˆ–"
      },
      "googleMapsPlaceId": "ChIJve6EBvIDBDQRzz1TxeWW4lM",
      "coordinates": {
        "lat": 22.3071208,
        "lng": 114.2572529
      }
    },
    {
      "address": {
        "zh": "å±¯é–€æ¹–ç¿ è·¯168-236è™Ÿæµ·è¶£åŠ1æ¨“77è™Ÿèˆ–(åŠ ç›Ÿåº—)"
      },
      "googleMapsPlaceId": "ChIJDVP3mVr7AzQRQ9TGaAjrCqE",
      "coordinates": {
        "lat": 22.3725194,
        "lng": 113.9668119
      }
    },
    {
      "address": {
        "zh": "é•·æ²™ç£æ˜Œè¯è¡—æ±æ™¯å¤§å»ˆåœ°ä¸‹"
      },
      "googleMapsPlaceId": "ChIJt3N_81EHBDQRlDduAjkih2U",
      "coordinates": {
        "lat": 22.3396389,
        "lng": 114.1545021
      }
    },
    {
      "address": {
        "zh": "å±¯é–€è‰¯æ™¯æ‘è‰¯æ™¯å»£å ´L404 ï¼ˆæ——è‰¦åº—ï¼‰"
      },
      "googleMapsPlaceId": "ChIJx3V5Uij7AzQR5PeFMHjlnpU",
      "coordinates": {
        "lat": 22.4063434,
        "lng": 113.9627991
      }
    },
    {
      "address": {
        "zh": "ç²‰å¶ºèŠ±éƒ½å»£å ´99è™Ÿèˆ–"
      },
      "googleMapsPlaceId": "ChIJhxydKCf2AzQRK0erR822l9s",
      "coordinates": {
        "lat": 22.4854804,
        "lng": 114.141195
      }
    }
  ],
  "yellowBlueMapIds": [
    "Y_SHOP01282",
    "Y_SHOP01283",
    "Y_SHOP01284",
    "Y_SHOP01285",
    "Y_SHOP01386"
  ]
}